City_ID,City,Lat,Lng,Max Temp,Humidity,Cloudiness,Wind Speed,Country,Date
0,new norfolk,-42.7826,147.0587,14.72,86,97,0.44,AU,1674321576
1,bambous virieux,-20.3428,57.7575,26.14,83,40,1.54,MU,1674321576
2,atuona,-9.8,-139.0333,25.75,79,14,7.17,PF,1674321571
3,port hardy,50.6996,-127.4199,4.24,97,100,4.63,CA,1674321325
4,ushuaia,-54.8,-68.3,11.81,76,75,2.57,AR,1674321577
5,kramat,-8.1311,113.4499,23.53,94,100,0.73,ID,1674321577
6,puerto ayora,-0.7393,-90.3518,29.98,88,57,2.24,EC,1674321578
7,bluff,-46.6,168.3333,12.01,69,80,7.7,NZ,1674321449
8,kedrovyy,56.1667,91.8167,-40.63,99,32,1.38,RU,1674321578
9,valparaiso,-33.0393,-71.6273,22.8,79,0,5.66,CL,1674321340
10,college,64.8569,-147.8028,-15.82,80,100,2.06,US,1674321579
11,camopi,3.1655,-52.3158,25.74,92,71,2.01,GF,1674321491
12,arvika,59.6553,12.5852,-5.66,98,20,0.81,SE,1674321579
13,jamestown,42.097,-79.2353,-0.2,52,100,2.57,US,1674321342
14,kutum,14.2,24.6667,22.61,17,29,3.81,SD,1674321580
15,tobane,-21.95,27.9,29.65,29,15,4.51,BW,1674321580
16,castro,-24.7911,-50.0119,26.29,55,100,2.91,BR,1674321580
17,hasaki,35.7333,140.8333,2.9,53,94,5.39,JP,1674321581
18,hobyo,5.3505,48.5268,25.06,76,11,10.53,SO,1674321556
19,aguimes,27.9054,-15.4461,19.26,58,20,10.73,ES,1674321581
20,zyryanskoye,56.8306,86.6258,-39.75,99,13,1.74,RU,1674321582
21,micheweni,-4.9667,39.8333,27.34,83,78,7.36,TZ,1674321582
22,saskylakh,71.9167,114.0833,-38.46,98,39,1.57,RU,1674321583
23,torbay,47.6666,-52.7314,0.88,97,100,11.62,CA,1674321583
24,severo-kurilsk,50.6789,156.125,-8.98,80,100,5.02,RU,1674321583
25,albany,42.6001,-73.9662,-0.2,80,91,0.89,US,1674321578
26,kapaa,22.0752,-159.319,23.18,91,100,4.63,US,1674321566
27,georgetown,5.4112,100.3354,25.96,94,20,1.03,MY,1674321556
28,solnechnyy,50.7214,136.6319,-28.08,96,99,1.3,RU,1674321584
29,srednekolymsk,67.45,153.6833,-38.31,99,99,2.72,RU,1674321584
30,saint petersburg,59.8944,30.2642,-5.92,93,0,2.0,RU,1674321371
31,upernavik,72.7868,-56.1549,-30.53,95,75,2.34,GL,1674321585
32,huasahuasi,-11.3167,-75.6167,11.38,54,89,4.72,PE,1674321585
33,rio gallegos,-51.6226,-69.2181,18.03,48,75,6.17,AR,1674321456
34,victoria,22.2855,114.1577,18.3,85,98,4.47,HK,1674321315
35,dikson,73.5069,80.5464,-21.96,92,100,13.48,RU,1674321586
36,sungairaya,0.7,108.9,25.11,88,100,1.08,ID,1674321586
37,kahului,20.8947,-156.47,21.58,88,0,1.54,US,1674321586
38,hermanus,-34.4187,19.2345,21.56,74,0,6.03,ZA,1674321587
39,barrow,71.2906,-156.7887,-18.99,78,100,2.57,US,1674321587
40,sitka,57.0531,-135.33,5.94,75,100,5.14,US,1674321587
41,busselton,-33.65,115.3333,24.9,45,46,6.23,AU,1674321588
42,sibolga,1.7427,98.7792,23.97,91,93,1.14,ID,1674321562
43,pisco,-13.7,-76.2167,23.34,83,0,4.63,PE,1674321588
44,krasnyy yar,46.5331,48.3456,-6.04,84,4,5.97,RU,1674321588
45,cape town,-33.9258,18.4232,26.16,50,0,2.68,ZA,1674321300
46,puyang,29.4603,119.8861,8.55,89,79,1.12,CN,1674321589
47,zhangye,38.9342,100.4517,-13.01,65,1,1.63,CN,1674321590
48,tiarei,-17.5333,-149.3333,26.01,73,92,1.45,PF,1674321590
49,mataura,-46.1927,168.8643,8.01,77,72,0.99,NZ,1674321590
50,hambantota,6.1241,81.1185,25.47,75,93,7.54,LK,1674321591
51,ormara,25.2088,64.6357,18.03,29,0,9.3,PK,1674321591
52,thompson,55.7435,-97.8558,-11.91,92,20,2.57,CA,1674321591
53,cameta,-2.2444,-49.4958,29.12,66,22,3.06,BR,1674321592
54,coquimbo,-29.9533,-71.3436,20.85,64,40,6.69,CL,1674321446
55,boralday,43.3578,76.8594,-13.08,85,40,2.0,KZ,1674321592
56,chuy,-33.6971,-53.4616,25.51,72,100,2.6,UY,1674321592
57,mar del plata,-38.0023,-57.5575,29.41,47,39,5.36,AR,1674321349
58,east london,-33.0153,27.9116,26.52,89,100,5.14,ZA,1674321593
59,santa cruz,-17.8,-63.1667,31.7,58,40,11.83,BO,1674321403
60,vaini,-21.2,-175.2,26.09,94,20,1.54,TO,1674321594
61,amahai,-3.3333,128.9167,25.59,85,100,1.75,ID,1674321594
62,tiksi,71.6872,128.8694,-30.66,96,100,1.34,RU,1674321595
63,kysyl-syr,63.8986,122.7617,-46.07,98,100,2.34,RU,1674321595
64,moshenskoye,58.5102,34.5911,-1.08,97,100,2.71,RU,1674321595
65,rikitea,-23.1203,-134.9692,25.83,75,35,7.56,PF,1674321422
66,mchinji,-13.7984,32.8802,17.39,99,100,1.49,MW,1674321596
67,tasiilaq,65.6145,-37.6368,-17.91,93,92,4.33,GL,1674321596
68,nikolskoye,59.7035,30.7861,-5.06,98,13,1.06,RU,1674321596
69,lenine,45.2986,35.7771,6.63,75,100,3.12,UA,1674321597
70,huarmey,-10.0681,-78.1522,23.6,74,98,4.05,PE,1674321597
71,naze,28.3667,129.4833,13.51,65,76,3.35,JP,1674321598
72,la ronge,55.1001,-105.2842,-9.86,92,100,2.57,CA,1674321598
73,khatanga,71.9667,102.5,-41.67,96,35,1.26,RU,1674321598
74,punta arenas,-53.15,-70.9167,18.06,40,40,6.17,CL,1674321599
75,leningradskiy,69.3833,178.4167,-37.21,94,91,2.8,RU,1674321599
76,chiang klang,19.2938,100.8617,18.79,57,0,0.59,TH,1674321599
77,nemuro,43.3236,145.575,-6.79,61,44,9.37,JP,1674321368
78,ilulissat,69.2167,-51.1,-22.99,59,75,6.17,GL,1674321600
79,tuatapere,-46.1333,167.6833,7.46,85,56,2.38,NZ,1674321600
80,itaporanga,-7.3044,-38.1503,35.07,29,15,3.39,BR,1674321601
81,ancud,-41.8697,-73.8203,16.86,85,99,4.47,CL,1674321601
82,novo aripuana,-5.1206,-60.3797,34.1,44,34,1.12,BR,1674321455
83,arraial do cabo,-22.9661,-42.0278,23.98,88,75,1.54,BR,1674321602
84,genhe,50.7833,121.5167,-35.8,100,100,0.86,CN,1674321602
85,alenquer,-1.9417,-54.7383,27.41,77,27,1.19,BR,1674321603
86,faya,18.3851,42.4509,14.06,69,16,1.85,SA,1674321603
87,campoverde,-8.4753,-74.8058,28.83,50,88,1.82,PE,1674321604
88,sturgeon falls,46.3646,-79.9326,-8.02,94,100,1.32,CA,1674321604
89,male,4.1748,73.5089,27.97,69,75,5.66,MV,1674321605
90,khovu-aksy,51.1333,93.6,-25.67,96,100,2.02,RU,1674321605
91,seoul,37.5683,126.9778,-2.24,54,0,2.06,KR,1674321606
92,mount gambier,-37.8333,140.7667,13.56,94,8,3.69,AU,1674321606
93,maniitsoq,65.4167,-52.9,-21.53,95,95,5.85,GL,1674321606
94,dunedin,-45.8742,170.5036,13.22,74,65,3.17,NZ,1674321337
95,port alfred,-33.5906,26.891,24.54,94,72,1.79,ZA,1674321607
96,lahnstein,50.3,7.6167,0.04,84,97,2.47,DE,1674321607
97,timizart,36.8,4.2667,5.31,92,100,2.37,DZ,1674321608
98,tucupita,9.0622,-62.051,29.01,55,89,3.73,VE,1674321608
99,abu samrah,35.3029,37.1841,11.18,62,0,3.37,SY,1674321609
100,oktyabrskoye,43.0645,44.7417,-2.92,100,100,3.0,RU,1674321609
101,el grullo,19.8,-104.2167,25.28,40,6,0.25,MX,1674321609
102,rudnyy,52.9594,63.1206,-16.87,89,4,1.96,KZ,1674321610
103,sao gabriel,-30.3364,-54.32,35.02,31,98,4.07,BR,1674321463
104,vao,-22.6667,167.4833,25.84,88,100,12.03,NC,1674321611
105,mahebourg,-20.4081,57.7,26.16,83,40,1.54,MU,1674321611
106,muzhi,65.3667,64.6667,-7.29,96,100,2.5,RU,1674321612
107,mokhsogollokh,61.4681,128.9203,-45.72,98,99,1.74,RU,1674321612
108,la libertad,-2.2333,-80.9,27.81,69,0,3.09,EC,1674321612
109,altea,38.5989,-0.0514,12.43,38,2,8.24,ES,1674321613
110,tanabe,33.7333,135.3667,2.01,72,30,3.37,JP,1674321613
111,ponta do sol,32.6667,-17.1,19.35,67,37,2.2,PT,1674321614
112,cayenne,4.9333,-52.3333,28.02,74,75,4.63,GF,1674321614
113,kavieng,-2.5744,150.7967,27.19,79,100,2.76,PG,1674321615
114,kaitangata,-46.2817,169.8464,8.05,85,58,2.65,NZ,1674321615
115,bafia,4.75,11.2333,28.96,26,87,2.33,CM,1674321330
116,ivdel,60.6911,60.4206,-3.85,78,100,5.24,RU,1674321616
117,flinders,-34.5833,150.8552,19.54,83,100,1.79,AU,1674321616
118,piterka,50.6803,47.4454,-6.97,84,33,5.13,RU,1674321617
119,sabha,27.0377,14.4283,12.93,20,0,1.98,LY,1674321617
120,port lincoln,-34.7333,135.8667,16.59,74,77,6.96,AU,1674321325
121,saint-georges,12.0564,-61.7485,29.82,62,20,10.29,GD,1674321618
122,bengkulu,-3.8004,102.2655,24.59,89,99,2.2,ID,1674321618
123,fortuna,40.5982,-124.1573,2.19,93,0,3.6,US,1674321619
124,talnakh,69.4865,88.3972,-25.01,70,100,5.79,RU,1674321619
125,quang ngai,15.1167,108.8,20.44,88,91,2.21,VN,1674321619
126,klaksvik,62.2266,-6.589,8.51,94,100,16.72,FO,1674321620
127,qaanaaq,77.484,-69.3632,-35.08,61,4,3.11,GL,1674321620
128,glasgow,55.8652,-4.2576,5.01,81,100,3.6,GB,1674321584
129,hilo,19.7297,-155.09,22.38,70,20,4.63,US,1674321395
130,kita,13.0349,-9.4895,35.38,9,0,1.85,ML,1674321621
131,tuktoyaktuk,69.4541,-133.0374,-19.0,78,100,3.09,CA,1674321621
132,launceston,-41.45,147.1667,14.8,82,100,0.0,AU,1674321622
133,tsumeb,-19.2333,17.7167,26.26,53,92,2.48,NA,1674321623
134,makakilo city,21.3469,-158.0858,25.18,76,40,5.66,US,1674321623
135,codrington,-38.2667,141.9667,14.22,94,15,3.92,AU,1674321623
136,cockburn town,21.4612,-71.1419,26.98,65,40,4.12,TC,1674321624
137,saint-denis,48.9167,2.3333,2.86,74,0,5.66,FR,1674321624
138,xining,36.6167,101.7667,-9.38,40,100,1.36,CN,1674321625
139,longview,32.5007,-94.7405,12.14,57,75,3.6,US,1674321469
140,hun,29.1268,15.9477,13.05,13,0,1.52,LY,1674321625
141,lira,2.235,32.9097,27.33,22,35,3.6,UG,1674321626
142,road town,18.4167,-64.6167,28.05,65,40,4.63,VG,1674321626
143,cidreira,-30.1811,-50.2056,26.45,72,91,6.44,BR,1674321626
144,whitehorse,60.7161,-135.0538,-0.57,69,75,7.2,CA,1674321627
145,hithadhoo,-0.6,73.0833,27.39,66,5,7.02,MV,1674321627
146,meulaboh,4.1363,96.1285,24.26,85,99,0.97,ID,1674321628
147,pangody,65.85,74.4859,-14.86,93,100,7.08,RU,1674321628
148,kamaishi,39.2667,141.8833,-1.94,62,14,3.82,JP,1674321628
149,sovetskiy,61.3614,63.5842,-3.62,88,100,3.9,RU,1674321629
150,khorramshahr,30.4397,48.1664,10.98,100,9,1.03,IR,1674321629
151,norman wells,65.282,-126.8329,-20.98,77,100,4.63,CA,1674321630
152,clyde river,70.4692,-68.5914,-32.87,68,100,5.14,CA,1674321630
153,avarua,-21.2078,-159.775,23.03,100,100,1.03,CK,1674321630
154,pandamatenga,-18.5278,25.627,20.38,77,95,2.24,BW,1674321631
155,chapais,49.7834,-74.8492,-15.12,89,100,2.7,CA,1674321631
156,rawson,-43.3002,-65.1023,21.36,67,52,6.1,AR,1674321631
157,zhanakorgan,43.9098,67.2495,-2.4,57,0,7.5,KZ,1674321632
158,lebu,-37.6167,-73.65,18.0,75,4,6.74,CL,1674321632
159,yeppoon,-23.1333,150.7333,21.88,76,29,5.58,AU,1674321633
160,sarakhs,36.5449,61.1577,-1.33,56,4,1.46,IR,1674321633
161,coihaique,-45.5752,-72.0662,19.34,59,100,2.06,CL,1674321633
162,kloulklubed,7.0419,134.2556,23.28,79,100,8.78,PW,1674321634
163,butaritari,3.0707,172.7902,27.28,74,100,6.29,KI,1674321634
164,fredericton,45.9454,-66.6656,-0.91,73,44,0.45,CA,1674321341
165,malampaka,-3.1333,33.5333,20.98,63,100,1.37,TZ,1674321635
166,carnarvon,-24.8667,113.6333,24.6,76,33,7.33,AU,1674321635
167,salalah,17.0151,54.0924,23.05,60,0,1.54,OM,1674321635
168,los llanos de aridane,28.6585,-17.9182,17.86,65,40,6.17,ES,1674321636
169,airai,-8.9266,125.4092,15.89,95,44,0.43,TL,1674321636
170,isangel,-19.55,169.2667,25.79,85,99,3.4,VU,1674321636
171,provideniya,64.3833,-173.3,-29.9,87,10,1.42,RU,1674321637
172,kuytun,54.3419,101.5036,-38.55,98,99,2.54,RU,1674321637
173,tocopilla,-22.092,-70.1979,22.64,75,41,2.45,CL,1674321637
174,bathsheba,13.2167,-59.5167,28.34,61,40,10.8,BB,1674321638
175,ribeira grande,38.5167,-28.7,18.22,82,40,5.14,PT,1674321638
176,saldanha,-33.0117,17.9442,23.03,81,21,4.8,ZA,1674321639
177,vestmannaeyjar,63.4427,-20.2734,2.55,93,40,3.6,IS,1674321639
178,kyshtovka,56.555,76.6271,-19.7,98,100,5.35,RU,1674321639
179,san pedro,14.35,121.0167,25.57,81,40,1.54,PH,1674321547
180,comodoro rivadavia,-45.8667,-67.5,23.92,50,0,3.09,AR,1674321640
181,hobart,-42.8794,147.3294,14.92,95,100,4.12,AU,1674321640
182,souillac,-20.5167,57.5167,26.21,83,40,1.54,MU,1674321640
183,pedasi,7.5333,-80.0333,27.58,69,2,6.81,PA,1674321641
184,portland,45.5234,-122.6762,3.12,95,75,2.57,US,1674321541
185,lagoa,39.05,-27.9833,15.3,82,97,8.35,PT,1674321641
186,safford,32.834,-109.7076,7.84,60,0,4.12,US,1674321642
187,guasdualito,7.2424,-70.7324,29.98,58,20,2.57,VE,1674321642
188,grindavik,63.8424,-22.4338,2.17,93,100,4.12,IS,1674321642
189,mezen,65.8522,44.24,-3.39,94,99,3.51,RU,1674321643
190,yellowknife,62.456,-114.3525,-12.94,93,100,4.84,CA,1674321365
191,paamiut,61.994,-49.6678,-17.5,69,46,4.72,GL,1674321643
192,nome,64.5011,-165.4064,-25.96,76,40,5.66,US,1674321359
193,artyom,40.4723,50.333,6.08,56,21,6.46,AZ,1674321644
194,loikaw,19.6742,97.2094,13.97,37,1,1.98,MM,1674321644
195,bredasdorp,-34.5322,20.0403,22.8,56,0,6.08,ZA,1674321645
196,saint george,37.1041,-113.5841,4.03,59,0,3.6,US,1674321387
197,kumta,14.4167,74.4,22.84,74,24,2.55,IN,1674321645
198,bilma,18.6853,12.9164,21.91,12,0,2.72,NE,1674321645
199,ginda,30.6945,78.4932,3.01,38,0,3.97,IN,1674321646
200,linda,39.1277,-121.5508,9.93,79,0,0.89,US,1674321642
201,geraldton,-28.7667,114.6,21.23,83,75,2.57,AU,1674321646
202,staraya russa,57.9944,31.3608,-3.99,96,100,3.37,RU,1674321647
203,port-cartier,50.0334,-66.8654,-4.88,67,8,1.46,CA,1674321647
204,kalmunai,7.4167,81.8167,23.89,89,85,4.59,LK,1674321647
205,vung tau,10.346,107.0843,25.01,83,100,6.21,VN,1674321396
206,greece,43.2098,-77.6931,0.75,88,100,1.79,US,1674321648
207,brae,60.3964,-1.353,6.7,89,100,11.6,GB,1674321648
208,daphne,30.6035,-87.9036,12.74,71,100,2.57,US,1674321429
209,pokhara,28.2333,83.9833,12.8,31,17,2.93,NP,1674321649
210,luangwa,-15.6167,30.4167,21.83,97,100,0.48,ZM,1674321649
211,broome,42.2506,-75.833,0.47,83,100,5.14,US,1674321649
212,tarabha,20.7333,83.65,19.7,48,31,1.45,IN,1674321650
213,yerbogachen,61.2767,108.0108,-47.91,100,73,0.55,RU,1674321650
214,gat,31.61,34.7642,16.89,100,82,1.69,IL,1674321650
215,buala,-8.145,159.5921,26.72,80,100,2.69,SB,1674321651
216,ixtapa,20.7,-105.2,25.13,64,0,0.89,MX,1674321651
217,faanui,-16.4833,-151.75,26.91,70,80,4.27,PF,1674321652
218,cherskiy,68.75,161.3,-39.77,99,100,3.2,RU,1674321652
219,kirkuk,35.4681,44.3922,11.51,51,0,1.08,IQ,1674321652
220,evanston,42.0411,-87.6901,-0.53,80,100,4.63,US,1674321569
221,luderitz,-26.6481,15.1594,21.0,67,4,9.17,NA,1674321653
222,viramgam,23.1225,72.0484,16.25,41,0,3.71,IN,1674321653
223,sao joao da barra,-21.6403,-41.0511,24.05,76,99,4.42,BR,1674321653
224,marsa matruh,31.3525,27.2453,16.01,63,0,1.52,EG,1674321654
225,maarianhamina,60.0973,19.9348,-2.08,100,100,2.06,AX,1674321654
226,carndonagh,55.25,-7.2667,7.92,96,100,5.32,IE,1674321655
227,bay roberts,47.5999,-53.2648,1.3,97,100,9.83,CA,1674321655
228,malakal,9.5334,31.6605,29.84,19,74,2.55,SS,1674321655
229,saint-augustin,51.226,-58.6502,-6.27,61,75,3.83,CA,1674321656
230,cabedelo,-6.9811,-34.8339,30.37,64,43,4.81,BR,1674321468
231,sinnamary,5.3833,-52.95,25.52,89,79,5.77,GF,1674321656
232,contamana,-7.3333,-75.0167,29.64,52,90,2.66,PE,1674321657
233,nouakchott,18.0858,-15.9785,22.96,57,0,6.62,MR,1674321657
234,zhob,31.3411,69.4481,5.35,58,55,0.95,PK,1674321657
235,merauke,-8.4667,140.3333,25.39,90,100,5.12,ID,1674321658
236,atar,20.5169,-13.0499,28.51,13,0,4.23,MR,1674321658
237,poso,-1.3959,120.7524,27.97,73,100,1.2,ID,1674321658
238,grand-lahou,5.1367,-5.0242,28.51,71,94,4.85,CI,1674321659
239,ca mau,9.1769,105.15,24.03,84,86,2.26,VN,1674321659
240,beringovskiy,63.05,179.3167,-30.08,93,100,3.01,RU,1674321659
241,lhokseumawe,5.1801,97.1507,23.67,95,100,3.12,ID,1674321660
242,miram shah,33.0086,70.0697,6.62,59,26,2.4,PK,1674321660
243,cabatuan,10.8794,122.486,22.99,96,72,4.76,PH,1674321661
244,shakhtinsk,49.71,72.5872,-21.44,100,74,0.58,KZ,1674321661
245,kununurra,-15.7667,128.7333,27.99,83,100,1.54,AU,1674321661
246,kroya,-7.6331,109.2461,25.26,86,94,1.19,ID,1674321662
247,camacha,33.0833,-16.3333,16.68,77,40,4.12,PT,1674321662
248,minab,27.1467,57.0801,17.26,32,0,3.25,IR,1674321663
249,phibun mangsahan,15.2447,105.2291,18.99,64,72,2.99,TH,1674321663
250,gizo,-8.103,156.8419,27.5,76,95,2.91,SB,1674321664
251,naryan-mar,67.6713,53.087,-6.77,94,100,5.71,RU,1674321664
252,olafsvik,64.8945,-23.7142,1.75,74,100,8.63,IS,1674321665
253,vestmanna,62.1564,-7.1664,7.51,100,100,8.75,FO,1674321665
254,emporia,38.4039,-96.1817,3.06,80,100,2.06,US,1674321665
255,goderich,43.7501,-81.7165,-0.05,74,90,3.6,CA,1674321666
256,ostrovskoye,57.8057,42.2433,-5.12,92,100,2.65,RU,1674321666
257,bataipora,-22.2953,-53.2711,32.0,49,13,3.76,BR,1674321667
258,ajdabiya,30.7554,20.2263,13.85,28,0,2.57,LY,1674321667
259,esperance,-33.8667,121.9,17.01,71,1,7.47,AU,1674321667
260,pevek,69.7008,170.3133,-33.38,96,100,2.84,RU,1674321668
261,hamilton,39.1834,-84.5333,2.34,71,100,1.54,US,1674321668
262,aklavik,68.2191,-135.0107,-20.0,77,100,3.6,CA,1674321668
263,racale,39.9631,18.0938,11.25,63,92,6.56,IT,1674321669
264,manoel urbano,-8.8389,-69.2597,29.13,56,97,2.52,BR,1674321669
265,landerneau,48.4525,-4.2525,6.42,73,0,2.57,FR,1674321670
266,zyryanka,65.75,150.85,-34.18,98,100,2.13,RU,1674321670
267,kavaratti,10.5669,72.642,26.93,62,1,3.79,IN,1674321671
268,labuhan,-6.8844,112.2051,24.58,94,90,2.08,ID,1674321671
269,kamina,-8.7386,24.9906,17.38,94,100,1.9,CD,1674321672
270,kedougou,12.5579,-12.1743,35.64,10,1,2.2,SN,1674321672
271,gallup,35.5281,-108.7426,-4.58,77,37,0.45,US,1674321672
272,asau,46.4333,26.4,1.51,78,3,0.56,RO,1674321673
273,jasper,37.2001,-94.3502,8.26,59,100,3.6,US,1674321673
274,ushtobe,45.2514,77.9838,-13.91,89,11,5.87,KZ,1674321674
275,san patricio,28.017,-97.5169,16.97,88,100,5.08,US,1674321674
276,bara,10.3744,10.7288,29.85,13,9,3.08,NG,1674321674
277,umm lajj,25.0213,37.2685,23.15,61,46,3.1,SA,1674321675
278,sao joao batista,-27.2761,-48.8494,33.15,67,95,2.78,BR,1674321675
279,salinas,36.6777,-121.6555,9.72,78,0,5.66,US,1674321676
280,iqaluit,63.7506,-68.5145,-11.15,85,100,3.6,CA,1674321676
281,bonavista,48.6499,-53.1147,-0.46,94,100,14.76,CA,1674321677
282,narsaq,60.9167,-46.05,-16.88,68,1,2.77,GL,1674321677
283,valdivia,-39.8142,-73.2459,22.05,51,97,2.57,CL,1674321677
284,ostrovnoy,68.0531,39.5131,-6.27,86,15,5.55,RU,1674321678
285,spring hill,28.4769,-82.5255,20.69,51,100,4.63,US,1674321405
286,chokurdakh,70.6333,147.9167,-39.73,100,93,2.67,RU,1674321678
287,pizarro,4.9533,-77.366,26.14,84,33,2.89,CO,1674321679
288,oliver,49.1831,-119.5524,-2.86,86,100,3.09,CA,1674321679
289,porto novo,6.4965,2.6036,29.63,64,24,4.91,BJ,1674321679
290,kruisfontein,-34.0033,24.7314,23.27,82,21,4.17,ZA,1674321680
291,hami,42.8,93.45,-8.78,38,66,3.87,CN,1674321680
292,kashi,39.4547,75.9797,-10.44,73,41,3.0,CN,1674321681
293,ponta delgada,37.7333,-25.6667,15.4,67,75,4.63,PT,1674321681
294,mahon,39.8885,4.2658,7.31,53,40,4.63,ES,1674321654
295,christchurch,-43.5333,172.6333,16.06,81,82,2.57,NZ,1674321492
296,bonthe,7.5264,-12.505,29.28,62,9,6.37,SL,1674321682
297,qaqortoq,60.7167,-46.0333,-18.56,70,2,3.81,GL,1674321682
298,maceio,-9.6658,-35.7353,31.69,58,20,5.66,BR,1674321598
299,nikolsk,53.7189,46.0712,-9.69,84,100,3.85,RU,1674321683
300,nagtipunan,16.2167,121.6,21.46,99,100,0.83,PH,1674321683
301,bethel,41.3712,-73.414,4.72,66,100,5.14,US,1674321510
302,ondjiva,-17.0667,15.7333,22.87,70,100,3.29,AO,1674321684
303,port elizabeth,-33.918,25.5701,25.17,89,75,2.68,ZA,1674321684
304,guaduas,5.0669,-74.595,23.58,72,69,1.24,CO,1674321685
305,fare,-16.7,-151.0167,26.76,69,77,3.52,PF,1674321685
306,mandan,46.8267,-100.8896,-5.35,88,0,4.63,US,1674321424
307,baracoa,20.3467,-74.4958,28.03,59,32,3.24,CU,1674321686
308,simpang,-1.2667,104.0833,23.06,95,67,0.52,ID,1674321686
309,charters towers,-20.1,146.2667,21.78,93,56,3.25,AU,1674321686
310,san vicente,-26.6167,-54.1333,35.42,25,13,2.24,AR,1674321560
311,san antonio,29.4241,-98.4936,13.4,78,100,4.12,US,1674321441
312,kantilo,20.35,85.1833,19.7,87,4,1.39,IN,1674321559
313,okhotsk,59.3833,143.3,-26.03,76,99,6.2,RU,1674321687
314,cabo san lucas,22.8909,-109.9124,22.51,66,0,2.06,MX,1674321410
315,le port,-20.9373,55.2919,28.0,89,100,3.51,RE,1674321688
316,nizhniy kuranakh,58.8353,125.4869,-45.44,98,100,0.93,RU,1674321688
317,nouadhibou,20.931,-17.0347,20.99,60,2,7.72,MR,1674321689
318,krasnokholm,51.5979,54.1567,-15.36,86,11,2.29,RU,1674321689
319,vryburg,-26.9566,24.7284,27.78,30,74,4.76,ZA,1674321689
320,izhma,65.0083,53.9113,-4.38,93,97,3.55,RU,1674321690
321,ossora,59.2353,163.0719,-21.69,97,100,4.37,RU,1674321690
322,lac du bonnet,50.2536,-96.0612,-8.72,91,63,1.96,CA,1674321485
323,yumen,40.2833,97.2,-9.54,40,92,11.32,CN,1674321691
324,berdigestyakh,62.0989,126.6992,-48.4,100,92,1.58,RU,1674321691
325,humaita,-7.5061,-63.0208,30.02,63,51,1.84,BR,1674321691
326,alofi,-19.0595,-169.9187,23.94,94,46,2.06,NU,1674321692
327,ahipara,-35.1667,173.1667,17.44,93,74,2.15,NZ,1674321692
328,atbasar,51.8,68.3333,-18.39,81,21,1.47,KZ,1674321693
329,korla,41.7597,86.1469,-12.57,74,1,2.92,CN,1674321693
330,chengde,40.9725,117.9361,-9.86,61,17,1.44,CN,1674321693
331,nhulunbuy,-12.2333,136.7667,25.34,94,75,2.57,AU,1674321694
332,tilichiki,60.4667,166.1,-28.82,91,100,6.25,RU,1674321694
333,santa rosalia,27.3167,-112.2833,14.13,44,0,6.03,MX,1674321694
334,poum,-20.2333,164.0167,26.82,87,100,11.21,NC,1674321695
335,nanning,22.8167,108.3167,12.25,86,58,3.7,CN,1674321695
336,uporovo,56.3109,66.2693,-9.9,87,87,3.4,RU,1674321696
337,buin,-33.7333,-70.75,29.47,22,0,4.25,CL,1674321458
338,balakhninskiy,58.0106,114.2769,-49.24,99,61,1.22,RU,1674321696
339,inhambane,-23.865,35.3833,27.99,69,20,2.06,MZ,1674321696
340,saint-philippe,-21.3585,55.7679,27.77,85,100,2.21,RE,1674321697
341,abu zabad,12.35,29.25,25.95,15,6,5.15,SD,1674321697
342,nabire,-3.3667,135.4833,23.48,93,100,1.47,ID,1674321698
343,sao filipe,14.8961,-24.4956,22.35,66,5,6.86,CV,1674321698
344,zhukovka,53.534,33.728,-0.85,64,60,4.38,RU,1674321699
345,atasu,48.6814,71.6433,-18.95,99,22,2.8,KZ,1674321699
346,port moresby,-9.4431,147.1797,23.68,94,20,1.54,PG,1674321699
347,savinskiy,62.9342,40.1361,-12.98,97,20,2.17,RU,1674321700
348,namatanai,-3.6667,152.4333,26.37,83,100,1.75,PG,1674321700
349,orlik,52.5178,99.825,-35.63,98,95,0.84,RU,1674321701
350,sarangani,5.4033,125.4636,25.29,82,100,4.78,PH,1674321701
351,skibbereen,51.55,-9.2667,10.06,97,100,3.46,IE,1674321701
352,terme,41.2092,36.9739,8.96,72,47,1.54,TR,1674321702
353,masuguru,-11.3667,38.4167,22.98,98,100,1.43,TZ,1674321702
354,chiang mai,18.75,99.0,22.07,70,0,1.03,TH,1674321702
355,tiznit,29.5833,-9.5,16.32,38,0,3.41,MA,1674321703
356,batagay-alyta,67.8006,130.4114,-33.71,81,95,2.1,RU,1674321703
357,cap-aux-meules,47.3821,-61.8597,-1.97,74,75,8.75,CA,1674321703
358,erzin,36.9559,36.2,12.05,62,0,3.08,TR,1674321704
359,hammerfest,70.6634,23.6821,1.25,75,100,4.63,NO,1674321704
360,san cristobal,7.7669,-72.225,26.1,39,7,3.53,VE,1674321704
361,dukat,62.55,155.55,-40.0,100,100,2.26,RU,1674321705
362,laguna,38.421,-121.4238,8.21,85,0,0.0,US,1674321705
363,cocobeach,1.0002,9.5823,27.34,77,100,3.13,GA,1674321706
364,tifton,31.4505,-83.5085,13.08,65,99,2.22,US,1674321651
365,moree,-29.4667,149.85,22.11,63,99,7.83,AU,1674321706
366,viedma,-40.8135,-62.9967,22.37,69,80,10.57,AR,1674321706
367,pombas,17.1503,-25.0201,22.88,69,52,7.42,CV,1674321707
368,shubarkuduk,49.1447,56.4872,-11.27,74,0,3.47,KZ,1674321707
369,chimay,50.0486,4.3171,1.57,88,14,5.24,BE,1674321708
370,fatezh,52.0891,35.8632,1.1,68,100,6.12,RU,1674321708
371,chizhou,30.6578,117.4831,7.28,89,100,1.37,CN,1674321708
372,kodiak,57.79,-152.4072,-0.27,59,0,8.23,US,1674321709
373,tarko-sale,64.9225,77.785,-18.23,96,100,11.37,RU,1674321709
374,duzce,40.8389,31.1639,12.39,54,25,2.21,TR,1674321709
375,taoudenni,22.6783,-3.9836,24.39,10,22,4.45,ML,1674321710
376,jumla,29.2747,82.1838,0.99,51,0,2.37,NP,1674321710
377,korablino,53.9164,40.0133,-4.99,80,100,5.51,RU,1674321711
378,tabuk,17.4189,121.4443,21.03,89,100,0.4,PH,1674321711
379,pionerskiy,54.9508,20.2275,0.91,75,100,12.03,RU,1674321711
380,pangnirtung,66.1451,-65.7125,-20.0,71,100,1.54,CA,1674321712
381,nguruka,-5.1092,31.0419,18.9,93,100,2.22,TZ,1674321712
382,port shepstone,-30.7414,30.455,25.68,86,63,1.2,ZA,1674321712
383,nanortalik,60.1432,-45.2371,-9.77,59,0,12.15,GL,1674321713
384,hay river,60.8156,-115.7999,-7.01,93,75,3.09,CA,1674321713
385,namie,37.4833,141.0,-1.12,62,9,5.75,JP,1674321713
386,mbandaka,0.0487,18.2603,24.15,82,100,1.93,CD,1674321714
387,ngunguru,-35.6167,174.5,17.56,83,100,2.86,NZ,1674321714
388,freeport,40.6576,-73.5832,5.82,60,100,5.66,US,1674321649
389,the valley,18.217,-63.0578,27.92,69,20,6.69,AI,1674321715
390,baturaja,-4.1333,104.1667,22.75,98,94,1.0,ID,1674321715
391,arkhangelskoye,55.8549,35.3287,-2.07,79,100,3.57,RU,1674321715
392,yar-sale,66.8333,70.8333,-9.78,96,100,3.43,RU,1674321716
393,natal,-5.795,-35.2094,31.36,62,20,6.69,BR,1674321586
394,smithers,54.7804,-127.1743,1.18,93,75,1.54,CA,1674321716
395,husavik,66.0449,-17.3389,-0.91,95,100,2.46,IS,1674321716
396,shache,38.4167,77.2406,-14.44,91,6,2.17,CN,1674321717
397,gasa,31.5,34.4667,12.71,69,90,2.07,PS,1674321717
398,yermakovskoye,53.2831,92.4003,-39.26,100,54,0.47,RU,1674321717
399,chornukhy,50.2673,32.942,1.4,81,1,5.28,UA,1674321718
400,pozo colorado,-23.4923,-58.7972,40.51,21,19,4.82,PY,1674321718
401,honningsvag,70.9821,25.9704,1.86,75,100,5.66,NO,1674321718
402,kensington,-33.9167,151.2167,20.38,83,75,3.09,AU,1674321719
403,riyadh,24.6877,46.7219,15.08,44,11,3.75,SA,1674321676
404,mahibadhoo,3.7833,72.9667,26.55,73,99,6.97,MV,1674321719
405,bambanglipuro,-7.95,110.2833,24.89,88,100,2.54,ID,1674321720
406,chernyshevskiy,63.0128,112.4714,-48.27,100,62,0.78,RU,1674321720
407,itoman,26.1247,127.6694,19.01,68,20,3.6,JP,1674321720
408,palora,-1.7,-77.9333,21.06,79,100,0.73,EC,1674321721
409,greymouth,-42.4667,171.2,14.76,81,96,3.25,NZ,1674321721
410,rocha,-34.4833,-54.3333,27.06,68,100,3.53,UY,1674321722
411,mashpee,41.6484,-70.4811,2.74,89,100,4.12,US,1674321722
412,ljungby,56.8332,13.9408,-1.77,92,7,3.16,SE,1674321723
413,lorengau,-2.0226,147.2712,26.57,81,100,0.84,PG,1674321723
414,mecca,21.4267,39.8261,24.83,67,1,4.05,SA,1674321697
415,dickinson,29.4608,-95.0513,12.86,92,100,4.63,US,1674321724
416,hluti,-27.2167,31.6167,25.5,49,99,3.45,SZ,1674321724
417,kargat,55.1956,80.2811,-29.36,91,99,2.8,RU,1674321724
418,maragogi,-9.0122,-35.2225,28.71,60,10,4.65,BR,1674321725
419,lumberton,34.6182,-79.0086,10.18,43,0,2.57,US,1674321671
420,belaya gora,68.5333,146.4167,-40.76,100,81,1.39,RU,1674321726
421,walvis bay,-22.9575,14.5053,21.17,69,56,8.3,NA,1674321726
422,luena,-11.7833,19.9167,19.33,86,99,1.85,AO,1674321727
423,khani,41.9563,42.9566,3.76,70,62,2.44,GE,1674321727
424,zabid,14.1951,43.3152,26.01,60,1,7.14,YE,1674321727
425,mazagao,-0.115,-51.2894,27.91,76,53,2.41,BR,1674321728
426,halifax,44.6453,-63.5724,0.0,81,100,10.29,CA,1674321597
427,darhan,49.4867,105.9228,-30.32,90,100,1.56,MN,1674321728
428,tazovskiy,67.4667,78.7,-19.26,95,100,8.52,RU,1674321729
429,formosa,-26.1775,-58.1781,39.99,35,75,7.72,AR,1674321730
430,yulara,-25.2406,130.9889,24.73,24,3,5.1,AU,1674321730
431,reconquista,-29.15,-59.65,33.84,38,99,4.85,AR,1674321730
432,boa vista,2.8197,-60.6733,29.99,54,75,5.14,BR,1674321731
433,teberda,43.4456,41.7448,3.77,54,100,1.22,RU,1674321731
434,hirara,24.8,125.2833,20.17,75,100,8.42,JP,1674321731
435,goundi,9.3627,17.366,30.88,13,35,1.71,TD,1674321732
436,longyearbyen,78.2186,15.6401,-4.09,74,75,5.14,SJ,1674321733
437,aksarka,66.5606,67.7975,-6.47,96,100,2.75,RU,1674321733
438,aquiraz,-3.9014,-38.3911,31.05,72,91,4.05,BR,1674321734
439,vardo,70.3705,31.1107,-0.4,83,13,8.14,NO,1674321734
440,sisimiut,66.9395,-53.6735,-24.73,98,99,4.83,GL,1674321734
441,beloha,-25.1667,45.05,24.83,84,89,7.15,MG,1674321735
442,guerrero negro,27.9769,-114.0611,14.18,49,0,0.95,MX,1674321735
443,port augusta,-32.5,137.7667,18.84,66,0,5.99,AU,1674321736
444,moron,-34.6534,-58.6198,30.01,57,50,4.47,AR,1674321736
445,daru,-9.0763,143.2092,24.72,92,100,3.6,PG,1674321736
446,seydisehir,37.4193,31.8453,5.75,74,36,1.18,TR,1674321737
447,bubaque,11.2833,-15.8333,24.79,60,0,7.52,GW,1674321497
448,volovo,48.5246,23.5056,-1.94,93,60,2.51,UA,1674321737
449,yenagoa,4.9247,6.2642,31.43,54,57,5.26,NG,1674321738
450,horta,38.5333,-28.6333,17.8,87,40,5.14,PT,1674321631
451,benguela,-12.5763,13.4055,26.36,76,100,2.71,AO,1674321739
452,santa vitoria do palmar,-33.5189,-53.3681,25.89,71,100,2.14,BR,1674321739
453,moquegua,-17.1956,-70.9353,23.62,49,8,4.32,PE,1674321739
454,broken hill,-31.95,141.4333,20.44,63,0,3.95,AU,1674321740
455,atikokan,48.7555,-91.6216,-8.24,90,100,2.86,CA,1674321740
456,smirnykh,49.75,142.8333,-23.33,81,98,4.81,RU,1674321741
457,isla vista,34.4133,-119.861,15.19,63,0,1.54,US,1674321741
458,lasa,46.6166,10.7002,-1.51,93,92,4.12,IT,1674321741
459,sitio novo do tocantins,-5.5183,-47.4611,31.96,66,75,4.63,BR,1674321742
460,sangar,63.9242,127.4739,-48.31,99,96,1.23,RU,1674321742
461,guiratinga,-16.3494,-53.7583,28.42,64,97,3.7,BR,1674321567
462,richards bay,-28.783,32.0377,26.14,74,27,6.19,ZA,1674321743
463,hailar,49.2,119.7,-41.13,100,51,0.51,CN,1674321743
464,hailey,43.5196,-114.3153,-11.67,92,75,3.09,US,1674321743
465,saint stephen,50.3333,-4.9,7.24,81,20,5.66,GB,1674321744
466,banepa,27.6298,85.5214,7.18,61,20,1.03,NP,1674321744
467,yarovoye,52.9273,78.58,-28.2,94,54,3.21,RU,1674321745
468,gisborne,-38.6533,178.0042,16.97,84,100,0.67,NZ,1674321745
469,hoa binh,20.8133,105.3383,15.14,84,0,1.53,VN,1674321745
470,wuwei,37.9281,102.6414,-7.52,33,53,2.39,CN,1674321746
471,machico,32.7,-16.7667,20.4,81,75,7.2,PT,1674321746
472,rockland,41.1668,-74.0496,4.42,66,7,2.24,US,1674321696
473,kachug,53.9606,105.8817,-37.99,99,100,0.93,RU,1674321747
474,harper,4.375,-7.7169,28.68,67,84,4.91,LR,1674321747
475,guhagar,17.4842,73.1929,20.1,77,0,2.93,IN,1674321747
476,altay,47.8667,88.1167,-23.34,80,88,3.1,CN,1674321748
477,kenai,60.5544,-151.2583,-2.7,82,20,2.06,US,1674321748
478,can,40.0333,27.0524,10.19,84,80,1.22,TR,1674321748
479,rubiataba,-15.1644,-49.8033,25.64,77,70,3.25,BR,1674321749
480,luwuk,-0.9516,122.7875,25.06,85,100,1.86,ID,1674321749
481,cay,38.5917,31.0286,7.43,68,69,1.5,TR,1674321750
482,mosquera,4.7059,-74.2302,18.05,48,75,2.06,CO,1674321750
483,necochea,-38.5473,-58.7368,26.08,50,51,7.88,AR,1674321750
484,liuzhou,24.3126,109.3892,14.23,64,100,1.15,CN,1674321751
485,pemba,-12.974,40.5178,24.39,100,75,4.63,MZ,1674321751
486,molina,-35.1167,-71.2833,28.54,34,0,2.06,CL,1674321751
487,khuzhir,53.1939,107.3397,-28.44,72,98,3.08,RU,1674321752
488,inirida,3.8653,-67.9239,31.08,54,14,0.47,CO,1674321752
489,waipawa,-41.4122,175.5153,10.46,92,2,2.68,NZ,1674321752
490,sakiai,54.9547,23.0358,0.27,85,100,7.06,LT,1674321753
491,bud,39.447,-86.1758,0.51,84,9,2.24,US,1674321753
492,lloret de mar,41.6999,2.8457,9.94,37,32,1.79,ES,1674321753
493,ailigandi,9.2333,-78.0167,27.69,70,20,3.83,PA,1674321754
494,salinopolis,-0.6136,-47.3561,28.07,71,53,4.95,BR,1674321754
495,marrakesh,31.6315,-8.0083,19.04,42,40,3.09,MA,1674321552
496,sioux lookout,50.1001,-91.917,-5.96,86,100,5.14,CA,1674321755
497,perth,-31.9333,115.8333,30.1,49,0,0.0,AU,1674321559
498,ola,59.5833,151.2833,-27.47,83,99,4.0,RU,1674321755
499,belvidere,42.2639,-88.8443,-2.55,93,100,2.68,US,1674321756
500,veinticinco de mayo,-35.4323,-60.1727,29.99,57,1,3.58,AR,1674321756
501,margate,51.3813,1.3862,5.39,77,17,1.34,GB,1674321535
502,meadow lake,34.8014,-106.5436,1.7,51,87,5.55,US,1674321757
503,kemijarvi,66.7131,27.4306,-17.19,100,75,1.62,FI,1674321757
504,paka,4.6374,103.4368,25.96,89,100,3.09,MY,1674321652
505,agadir,30.4202,-9.5982,18.25,52,0,3.55,MA,1674321474
506,west wendover,40.7391,-114.0733,-6.44,73,0,0.0,US,1674321758
507,tari,12.4086,4.4914,32.45,13,0,2.48,NG,1674321758
508,thinadhoo,0.5333,72.9333,27.28,69,40,7.77,MV,1674321758
509,balabac,7.9868,117.0645,26.85,82,99,7.79,PH,1674321759
510,apac,1.9756,32.5386,28.16,21,81,2.03,UG,1674321759
511,caravelas,-17.7125,-39.2481,25.94,83,100,3.41,BR,1674321759
512,otane,-39.8833,176.6333,16.12,91,94,0.79,NZ,1674321760
513,kobayashi,31.9833,130.9833,0.43,91,5,1.09,JP,1674321760
514,centralia,46.7162,-122.9543,1.78,97,68,0.45,US,1674321761
515,talara,-4.5772,-81.2719,31.42,45,0,4.63,PE,1674321761
516,sokolo,14.7328,-6.1219,33.82,8,0,1.01,ML,1674321761
517,bandarbeyla,9.4942,50.8122,23.97,69,13,9.07,SO,1674321762
518,lompoc,34.6391,-120.4579,9.91,76,0,3.6,US,1674321621
519,zlobin,45.2924,14.6541,-0.23,64,40,18.52,HR,1674321762
520,bosobolo,4.1833,19.9,29.17,23,100,0.6,CD,1674321762
521,raga,8.4596,25.678,27.69,18,82,1.94,SS,1674321763
522,truckee,39.328,-120.1833,2.76,66,4,0.84,US,1674321763
523,ust-kuyga,70.0167,135.6,-44.91,100,99,3.36,RU,1674321764
524,dongsheng,39.8161,109.9776,-11.22,60,37,4.98,CN,1674321764
525,malanje,-9.5402,16.341,19.76,88,92,2.73,AO,1674321765
526,senj,44.9894,14.9058,4.53,81,100,15.33,HR,1674321765
527,astana,51.1801,71.446,-22.03,77,0,2.0,KZ,1674321663
528,sept-iles,50.2001,-66.3821,-4.71,46,20,2.06,CA,1674321749
529,roma,43.2128,-75.4557,0.94,81,100,2.06,US,1674321558
530,vanimo,-2.6741,141.3028,24.99,90,98,1.49,PG,1674321766
531,chipinge,-20.1883,32.6236,20.61,69,87,2.06,ZW,1674321766
532,ayagoz,47.9714,80.4392,-22.48,99,63,4.31,KZ,1674321766
533,port macquarie,-31.4333,152.9167,16.61,74,100,0.67,AU,1674321767
534,katsuura,35.1333,140.3,5.06,65,65,4.52,JP,1674321767
535,kinshasa,-4.3246,15.3215,25.9,79,100,1.75,CD,1674321482
536,yaring,6.8662,101.3689,24.42,87,95,2.87,TH,1674321768
537,coahuayana,18.7333,-103.6833,28.04,56,6,1.56,MX,1674321768
538,sur,22.5667,59.5289,19.61,59,20,4.06,OM,1674321769
539,touros,-5.1989,-35.4608,29.99,60,34,5.64,BR,1674321769
540,tammisaari,59.9736,23.4339,-1.72,98,72,2.25,FI,1674321769
541,akyab,20.15,92.9,19.95,62,6,4.43,MM,1674321770
542,vila franca do campo,37.7167,-25.4333,15.23,62,68,2.89,PT,1674321770
543,cardoso,-20.0819,-49.9142,27.61,70,59,4.55,BR,1674321770
544,honjo,36.2333,139.1833,-0.74,46,4,2.74,JP,1674321771
545,kiri buru,22.0833,85.35,17.84,45,16,1.26,IN,1674321771
546,palmerston,-12.486,130.9833,26.99,81,100,1.54,AU,1674321772
547,morgan city,29.6994,-91.2068,12.79,76,100,6.69,US,1674321772
548,sabinas hidalgo,26.5,-100.1667,19.59,73,84,0.98,MX,1674321772
549,waingapu,-9.6567,120.2641,24.97,80,5,2.63,ID,1674321773
550,san francisco,37.7749,-122.4194,9.7,74,20,2.24,US,1674321481
551,komsomolskiy,40.4272,71.7189,-6.6,79,91,2.06,UZ,1674321773
552,pathein,16.7833,94.7333,19.27,68,1,3.09,MM,1674321774
553,dondo,-19.6094,34.7431,28.73,78,85,2.62,MZ,1674321774
554,palu,-0.8917,119.8707,24.06,94,100,0.55,ID,1674321592
555,zongolica,18.6667,-96.9833,25.13,47,62,1.6,MX,1674321776
556,roald,62.5833,6.1333,7.51,29,0,7.72,NO,1674321776
557,sabang,5.8933,95.3214,24.41,89,100,5.62,ID,1674321776
558,requena,39.4883,-1.1004,7.11,34,0,5.43,ES,1674321777
559,ryotsu,38.0833,138.4333,1.17,63,78,0.54,JP,1674321777
560,quesnel,52.9999,-122.5029,-1.72,93,100,1.03,CA,1674321777
561,aksu,41.1231,80.2644,-14.59,81,1,2.23,CN,1674321778
562,bakel,14.905,-12.4568,33.17,13,30,3.13,SN,1674321778
563,kiunga,-6.1219,141.2906,22.55,99,99,1.01,PG,1674321778
564,marawi,7.9986,124.2928,19.14,96,91,1.58,PH,1674321779
565,moratuwa,6.773,79.8816,25.15,76,99,5.32,LK,1674321779
